City_ID,City,Country,Date,Lat,Lng,Max Temp,Humidity,Cloudiness,Wind Speed,Current Description
0,Escanaba,US,2021-12-06 17:40:13,45.7453,-87.0646,30.63,75,90,20.71,light snow
1,Stonewall,CA,2021-12-06 17:40:13,50.1344,-97.3268,-2.02,81,19,9.57,few clouds
2,East London,ZA,2021-12-06 17:39:30,-33.0153,27.9116,68.94,77,20,14.97,few clouds
3,Sao Filipe,CV,2021-12-06 17:35:59,14.8961,-24.4956,78.89,62,2,7.94,clear sky
4,Rikitea,PF,2021-12-06 17:40:14,-23.1203,-134.9692,75.54,74,93,6.51,overcast clouds
5,Isangel,VU,2021-12-06 17:35:25,-19.55,169.2667,77.25,86,9,5.61,clear sky
6,Khatanga,RU,2021-12-06 17:40:14,71.9667,102.5,-6.12,97,100,9.78,overcast clouds
7,Atuona,PF,2021-12-06 17:33:29,-9.8,-139.0333,78.89,71,12,22.06,few clouds
8,Bintulu,MY,2021-12-06 17:40:15,3.1667,113.0333,75.61,94,40,5.01,scattered clouds
9,Comodoro Rivadavia,AR,2021-12-06 17:32:25,-45.8667,-67.5,78.66,19,0,13.8,clear sky
10,Hobart,AU,2021-12-06 17:38:06,-42.8794,147.3294,62.46,76,90,9.22,overcast clouds
11,Commerce,US,2021-12-06 17:40:15,34.0006,-118.1598,77.99,70,1,0.0,haze
12,Ushuaia,AR,2021-12-06 17:31:36,-54.8,-68.3,47.86,61,75,23.02,light intensity drizzle
13,Upernavik,GL,2021-12-06 17:40:16,72.7868,-56.1549,20.8,94,99,5.46,overcast clouds
14,Tondano,ID,2021-12-06 17:40:16,1.3038,124.9112,68.09,96,99,3.13,overcast clouds
15,Nanuque,BR,2021-12-06 17:40:17,-17.8392,-40.3539,82.42,67,85,12.06,light rain
16,Ahipara,NZ,2021-12-06 17:40:17,-35.1667,173.1667,65.61,95,99,6.08,overcast clouds
17,Albany,US,2021-12-06 17:31:10,42.6001,-73.9662,56.73,85,100,1.99,overcast clouds
18,Saint George,US,2021-12-06 17:34:44,37.1041,-113.5841,60.35,48,1,0.0,clear sky
19,New Norfolk,AU,2021-12-06 17:40:17,-42.7826,147.0587,62.1,66,51,2.62,broken clouds
20,Georgetown,MY,2021-12-06 17:40:18,5.4112,100.3354,80.89,80,20,3.0,few clouds
21,Souillac,MU,2021-12-06 17:40:18,-20.5167,57.5167,79.36,73,40,6.91,scattered clouds
22,Castro,BR,2021-12-06 17:40:19,-24.7911,-50.0119,72.52,67,12,7.83,few clouds
23,Punta Arenas,CL,2021-12-06 17:40:19,-53.15,-70.9167,51.12,83,100,16.89,light rain
24,Havelock,US,2021-12-06 17:38:06,34.8791,-76.9013,73.98,77,75,7.0,broken clouds
25,Ornskoldsvik,SE,2021-12-06 17:40:19,63.2909,18.7153,9.55,100,90,5.75,light snow
26,Semirom,IR,2021-12-06 17:40:20,31.4167,51.5667,38.26,41,49,3.44,scattered clouds
27,Qaanaaq,GL,2021-12-06 17:33:26,77.484,-69.3632,23.16,87,100,8.19,overcast clouds
28,Bredasdorp,ZA,2021-12-06 17:40:20,-34.5322,20.0403,63.28,70,92,5.59,overcast clouds
29,Vaini,TO,2021-12-06 17:33:46,-21.2,-175.2,75.36,94,75,6.91,broken clouds
30,Busselton,AU,2021-12-06 17:40:21,-33.65,115.3333,55.09,68,0,18.66,clear sky
31,Manokwari,ID,2021-12-06 17:40:21,-0.8667,134.0833,79.56,77,92,2.33,overcast clouds
32,Cape Town,ZA,2021-12-06 17:38:18,-33.9258,18.4232,67.26,55,0,1.99,clear sky
33,Nikolskoye,RU,2021-12-06 17:40:22,59.7035,30.7861,6.4,96,100,4.43,light snow
34,Provideniya,RU,2021-12-06 17:40:22,64.3833,-173.3,15.89,93,100,8.23,light snow
35,Butaritari,KI,2021-12-06 17:33:30,3.0707,172.7902,83.39,74,100,13.71,overcast clouds
36,Inirida,CO,2021-12-06 17:35:25,3.8653,-67.9239,88.27,61,48,1.39,scattered clouds
37,Havoysund,NO,2021-12-06 17:40:23,70.9963,24.6622,26.83,92,100,13.53,overcast clouds
38,Port Alfred,ZA,2021-12-06 17:40:23,-33.5906,26.891,65.64,86,73,10.78,broken clouds
39,Kieta,PG,2021-12-06 17:40:23,-6.2167,155.6333,79.36,87,99,5.12,light rain
40,Mataura,NZ,2021-12-06 17:40:23,-46.1927,168.8643,47.48,83,7,3.69,clear sky
41,Bambous Virieux,MU,2021-12-06 17:34:59,-20.3428,57.7575,79.21,73,40,6.91,scattered clouds
42,Hermanus,ZA,2021-12-06 17:33:29,-34.4187,19.2345,64.9,73,59,1.12,broken clouds
43,Santa Cruz De Tenerife,ES,2021-12-06 17:40:24,28.4682,-16.2546,68.72,79,75,8.01,broken clouds
44,Awjilah,LY,2021-12-06 17:40:24,29.1081,21.2869,61.16,38,0,10.63,clear sky
45,Limoeiro De Anadia,BR,2021-12-06 17:40:25,-9.7406,-36.5028,91.29,37,18,17.76,few clouds
46,Isla Vista,US,2021-12-06 17:36:01,34.4133,-119.861,79.3,52,90,4.61,mist
47,Quba,AZ,2021-12-06 17:40:25,41.3626,48.5152,43.86,60,5,5.03,clear sky
48,Kanye,BW,2021-12-06 17:40:26,-24.9667,25.3327,74.5,44,66,7.31,broken clouds
49,Zeya,RU,2021-12-06 17:40:26,53.75,127.2667,6.12,85,68,2.75,broken clouds
50,Cayenne,GF,2021-12-06 17:40:26,4.9333,-52.3333,80.64,86,90,3.44,overcast clouds
51,Yellowknife,CA,2021-12-06 17:33:30,62.456,-114.3525,-21.48,69,75,5.75,broken clouds
52,Hilo,US,2021-12-06 17:35:47,19.7297,-155.09,74.25,95,90,8.05,heavy intensity rain
53,Lensk,RU,2021-12-06 17:40:27,60.7253,114.9278,-11.61,97,49,5.21,scattered clouds
54,Yar-Sale,RU,2021-12-06 17:40:27,66.8333,70.8333,2.28,95,98,10.87,overcast clouds
55,Kunya,NG,2021-12-06 17:40:27,12.2233,8.5325,82.56,21,99,8.05,haze
56,College,US,2021-12-06 17:40:28,64.8569,-147.8028,24.46,73,90,0.0,overcast clouds
57,Sagarejo,GE,2021-12-06 17:40:28,41.734,45.3315,43.23,68,21,1.21,few clouds
58,Constantine,DZ,2021-12-06 17:40:29,36.365,6.6147,44.01,81,75,14.97,broken clouds
59,Baytown,US,2021-12-06 17:40:29,29.7355,-94.9774,79.07,86,91,1.99,overcast clouds
60,Mar Del Plata,AR,2021-12-06 17:38:34,-38.0023,-57.5575,69.82,80,0,18.01,clear sky
61,San Cristobal,VE,2021-12-06 17:40:30,7.7669,-72.225,78.98,41,89,6.69,overcast clouds
62,Sisimiut,GL,2021-12-06 17:40:30,66.9395,-53.6735,22.46,78,100,18.25,light snow
63,Salalah,OM,2021-12-06 17:40:30,17.0151,54.0924,77.09,50,0,5.75,clear sky
64,San Policarpo,PH,2021-12-06 17:40:31,12.1791,125.5072,79.81,74,100,14.81,overcast clouds
65,Kodiak,US,2021-12-06 17:40:01,57.79,-152.4072,36.91,81,90,20.71,light snow
66,Baykit,RU,2021-12-06 17:40:31,61.67,96.37,-2.74,100,98,2.01,overcast clouds
67,Korgen,NO,2021-12-06 17:40:32,66.0771,13.8153,17.31,88,2,9.13,clear sky
68,Puerto Ayora,EC,2021-12-06 17:40:32,-0.7393,-90.3518,76.96,74,85,8.03,overcast clouds
69,Bethel,US,2021-12-06 17:40:33,41.3712,-73.414,55.69,88,90,7.0,overcast clouds
70,Geraldton,AU,2021-12-06 17:40:33,-28.7667,114.6,70.21,88,11,12.66,few clouds
71,Hare Bay,CA,2021-12-06 17:40:33,48.8499,-54.0148,31.35,51,84,7.74,broken clouds
72,Pelym,RU,2021-12-06 17:40:34,61.0108,61.9978,-12.39,98,7,3.94,clear sky
73,Bandarbeyla,SO,2021-12-06 17:40:34,9.4942,50.8122,77.16,63,4,16.67,clear sky
74,Bluff,NZ,2021-12-06 17:33:31,-46.6,168.3333,46.8,75,6,12.12,clear sky
75,Jamestown,US,2021-12-06 17:28:30,42.097,-79.2353,54.72,93,90,5.99,moderate rain
76,Dom Pedrito,BR,2021-12-06 17:40:34,-30.9828,-54.6731,85.86,30,1,11.25,clear sky
77,Zastron,ZA,2021-12-06 17:40:35,-30.3023,27.084,59.76,44,4,4.32,clear sky
78,Poum,NC,2021-12-06 17:34:01,-20.2333,164.0167,80.49,73,9,7.07,clear sky
79,Dunedin,NZ,2021-12-06 17:31:00,-45.8742,170.5036,50.11,83,94,10.71,overcast clouds
80,Oderzo,IT,2021-12-06 17:40:35,45.7882,12.5019,43.05,67,3,2.21,clear sky
81,Marang,MY,2021-12-06 17:34:04,5.2056,103.2059,80.51,82,88,5.44,overcast clouds
82,Banita,RO,2021-12-06 17:40:36,45.45,23.2667,36.54,99,100,3.11,overcast clouds
83,Saskylakh,RU,2021-12-06 17:33:47,71.9167,114.0833,-30.33,97,61,7.67,broken clouds
84,Roma,US,2021-12-06 17:39:49,43.2128,-75.4557,55.96,82,90,13.8,overcast clouds
85,Alenquer,BR,2021-12-06 17:40:36,-1.9417,-54.7383,86.34,59,99,2.1,overcast clouds
86,Kapaa,US,2021-12-06 17:40:36,22.0752,-159.319,75.18,87,75,5.75,moderate rain
87,Northam,GB,2021-12-06 17:40:37,51.0333,-4.2167,47.25,76,39,27.31,light rain
88,Carnarvon,AU,2021-12-06 17:40:37,-24.8667,113.6333,71.67,83,90,19.57,overcast clouds
89,Gotsu,JP,2021-12-06 17:40:38,35.0,132.2167,48.74,76,39,3.74,scattered clouds
90,Chokurdakh,RU,2021-12-06 17:33:28,70.6333,147.9167,-28.03,96,97,2.75,overcast clouds
91,Itaituba,BR,2021-12-06 17:35:53,-4.2761,-55.9836,91.56,62,40,6.91,scattered clouds
92,Abonnema,NG,2021-12-06 17:40:38,4.7084,6.7931,82.08,76,88,8.79,overcast clouds
93,Luangwa,ZM,2021-12-06 17:40:39,-15.6167,30.4167,87.82,29,28,2.93,scattered clouds
94,Torbay,CA,2021-12-06 17:40:39,47.6666,-52.7314,34.57,65,75,11.5,broken clouds
95,Kumbo,CM,2021-12-06 17:40:40,6.2,10.6667,67.78,47,100,4.76,overcast clouds
96,Cape Canaveral,US,2021-12-06 17:40:28,28.4058,-80.6048,82.99,71,37,6.17,scattered clouds
97,Itapaci,BR,2021-12-06 17:40:40,-14.9508,-49.5494,83.37,64,26,3.33,light rain
98,Portland,US,2021-12-06 17:32:31,45.5234,-122.6762,44.42,95,90,1.01,light rain
99,Srednekolymsk,RU,2021-12-06 17:40:40,67.45,153.6833,-44.81,100,76,1.48,broken clouds
100,Guerrero Negro,MX,2021-12-06 17:40:41,27.9769,-114.0611,68.47,60,0,2.64,clear sky
101,Katobu,ID,2021-12-06 17:40:41,-4.9408,122.5276,77.56,85,100,11.43,moderate rain
102,Carroll,US,2021-12-06 17:40:41,39.5501,-77.0164,63.01,74,40,4.0,scattered clouds
103,Muros,ES,2021-12-06 17:40:42,42.7762,-9.0603,57.99,95,100,7.25,overcast clouds
104,Ribeira Grande,PT,2021-12-06 17:33:55,38.5167,-28.7,64.8,63,75,12.66,broken clouds
105,Tuktoyaktuk,CA,2021-12-06 17:40:42,69.4541,-133.0374,3.2,72,20,14.97,few clouds
106,Atambua,ID,2021-12-06 17:40:42,-9.1061,124.8925,75.78,88,99,1.16,overcast clouds
107,Romanovka,RU,2021-12-06 17:33:41,51.7443,42.7527,28.98,73,100,11.41,overcast clouds
108,Antalaha,MG,2021-12-06 17:40:43,-14.9003,50.2788,74.57,88,3,8.37,moderate rain
109,Leua,SK,2021-12-06 17:35:59,48.2156,18.6071,35.49,88,52,6.55,broken clouds
110,Barrow,US,2021-12-06 17:40:16,71.2906,-156.7887,23.02,80,1,23.02,clear sky
111,Malindi,KE,2021-12-06 17:40:43,-3.2175,40.1191,82.56,78,20,4.61,few clouds
112,Dikson,RU,2021-12-06 17:40:44,73.5069,80.5464,-13.23,98,90,7.52,overcast clouds
113,Aksarka,RU,2021-12-06 17:40:44,66.5606,67.7975,10.26,91,100,11.81,overcast clouds
114,Nome,US,2021-12-06 17:40:44,64.5011,-165.4064,26.67,86,90,16.11,light snow
115,Tasiilaq,GL,2021-12-06 17:40:45,65.6145,-37.6368,30.36,90,95,11.27,overcast clouds
116,Lebu,CL,2021-12-06 17:33:40,-37.6167,-73.65,65.39,67,0,14.16,clear sky
117,Mount Hagen,PG,2021-12-06 17:40:45,-5.8581,144.2274,58.32,98,100,1.68,overcast clouds
118,Pochutla,MX,2021-12-06 17:40:46,15.7432,-96.4661,90.82,40,0,7.09,clear sky
119,San Fernando,PH,2021-12-06 17:40:46,15.0286,120.6898,77.14,83,85,4.68,overcast clouds
120,Chuy,UY,2021-12-06 17:33:36,-33.6971,-53.4616,72.95,58,14,11.59,few clouds
121,Rayong,TH,2021-12-06 17:40:46,12.8333,101.4333,72.3,82,98,5.95,overcast clouds
122,Bolgar,RU,2021-12-06 17:40:47,54.95,49.0667,22.91,77,64,6.29,broken clouds
123,Kropotkin,RU,2021-12-06 17:40:47,45.4375,40.5756,47.57,80,78,7.38,broken clouds
124,Bairiki,KI,2021-12-06 17:40:47,1.3292,172.9752,82.4,78,40,12.66,scattered clouds
125,Alice Springs,AU,2021-12-06 17:35:00,-23.7,133.8833,69.35,83,75,17.27,light intensity shower rain
126,Lata,PT,2021-12-06 17:35:04,40.1629,-8.3327,56.91,85,63,0.74,broken clouds
127,Dhandhuka,IN,2021-12-06 17:40:48,22.3667,71.9833,74.66,48,0,7.23,clear sky
128,Pisco,PE,2021-12-06 17:40:48,-13.7,-76.2167,73.45,68,0,14.97,clear sky
129,Avarua,CK,2021-12-06 17:40:49,-21.2078,-159.775,78.85,89,75,8.05,light rain
130,Port Hueneme,US,2021-12-06 17:35:40,34.1478,-119.1951,79.43,76,20,3.44,mist
131,Victoria,HK,2021-12-06 17:38:58,22.2855,114.1577,67.24,75,0,7.0,clear sky
132,Port Lincoln,AU,2021-12-06 17:40:49,-34.7333,135.8667,57.06,72,63,14.67,broken clouds
133,Ilulissat,GL,2021-12-06 17:40:50,69.2167,-51.1,21.22,45,40,18.41,scattered clouds
134,Ciudad Bolivar,VE,2021-12-06 17:40:50,8.1222,-63.5497,88.18,50,75,9.62,broken clouds
135,La Rioja,ES,2021-12-06 17:40:28,42.25,-2.5,44.38,84,99,12.17,overcast clouds
136,Kenora,CA,2021-12-06 17:40:50,49.8167,-94.4337,-5.82,70,40,8.05,scattered clouds
137,Sao Joao Da Barra,BR,2021-12-06 17:34:44,-21.6403,-41.0511,82.49,80,97,9.48,overcast clouds
138,Gat,IL,2021-12-06 17:40:51,31.61,34.7642,66.4,53,100,2.39,overcast clouds
139,Aykino,RU,2021-12-06 17:40:51,62.2248,49.9922,-1.7,98,23,5.23,few clouds
140,Veraval,IN,2021-12-06 17:40:52,20.9,70.3667,74.77,66,0,5.68,clear sky
141,Talnakh,RU,2021-12-06 17:40:52,69.4865,88.3972,-7.8,99,100,12.46,light snow
142,Nanortalik,GL,2021-12-06 17:34:13,60.1432,-45.2371,25.27,70,72,37.49,light snow
143,Cidreira,BR,2021-12-06 17:40:53,-30.1811,-50.2056,72.39,71,4,15.1,clear sky
144,Kamina,CD,2021-12-06 17:40:53,-8.7386,24.9906,65.26,96,96,4.18,light rain
145,Te Anau,NZ,2021-12-06 17:40:53,-45.4167,167.7167,41.67,95,33,1.5,scattered clouds
146,Sabang,ID,2021-12-06 17:40:54,5.8933,95.3214,81.99,74,57,19.69,broken clouds
147,Tuatapere,NZ,2021-12-06 17:40:54,-46.1333,167.6833,47.82,91,12,3.85,few clouds
148,Sungaipenuh,ID,2021-12-06 17:33:29,-2.0833,101.3833,64.44,94,99,1.5,overcast clouds
149,Aguimes,ES,2021-12-06 17:40:55,27.9054,-15.4461,65.03,64,40,17.27,scattered clouds
150,Caravelas,BR,2021-12-06 17:40:55,-17.7125,-39.2481,82.62,64,27,10.83,light rain
151,Awbari,LY,2021-12-06 17:40:56,26.5921,12.7805,56.12,26,0,12.3,clear sky
152,Severo-Kurilsk,RU,2021-12-06 17:40:56,50.6789,156.125,36.05,87,90,13.22,overcast clouds
153,Diapaga,BF,2021-12-06 17:40:57,12.0708,1.7889,85.39,15,70,6.53,broken clouds
154,Fortuna,US,2021-12-06 17:34:55,40.5982,-124.1573,49.35,69,100,3.0,overcast clouds
155,Hamilton,US,2021-12-06 17:38:31,39.1834,-84.5333,40.44,68,20,1.99,few clouds
156,Port Hardy,CA,2021-12-06 17:35:17,50.6996,-127.4199,38.75,87,90,32.21,overcast clouds
157,Arraial Do Cabo,BR,2021-12-06 17:33:31,-22.9661,-42.0278,78.66,73,75,6.91,thunderstorm
158,Zhangye,CN,2021-12-06 17:40:57,38.9342,100.4517,26.87,53,62,3.85,broken clouds
159,Thompson,CA,2021-12-06 17:34:23,55.7435,-97.8558,-21.84,76,1,4.61,clear sky
160,Yeppoon,AU,2021-12-06 17:33:33,-23.1333,150.7333,73.18,75,70,13.06,broken clouds
161,Mehamn,NO,2021-12-06 17:34:05,71.0357,27.8492,28.35,93,90,18.41,light shower snow
162,Misratah,LY,2021-12-06 17:40:58,32.3754,15.0925,57.36,55,31,29.57,scattered clouds
163,Inverell,AU,2021-12-06 17:40:58,-29.7833,151.1167,63.1,93,100,4.0,moderate rain
164,Shaunavon,CA,2021-12-06 17:40:59,49.6501,-108.4181,4.78,88,100,7.65,overcast clouds
165,Mount Isa,AU,2021-12-06 17:34:01,-20.7333,139.5,73.17,73,97,12.66,overcast clouds
166,Mahebourg,MU,2021-12-06 17:40:59,-20.4081,57.7,79.25,73,40,6.91,scattered clouds
167,Lumberton,US,2021-12-06 17:40:59,34.6182,-79.0086,74.21,47,59,16.17,broken clouds
168,Ancud,CL,2021-12-06 17:41:00,-41.8697,-73.8203,71.65,50,0,4.56,clear sky
169,Pevek,RU,2021-12-06 17:33:42,69.7008,170.3133,-11.04,94,100,16.51,overcast clouds
170,Byron Bay,AU,2021-12-06 17:39:16,-28.65,153.6167,69.87,89,100,3.85,overcast clouds
171,Aars,DK,2021-12-06 17:41:00,56.804,9.5144,32.79,88,100,15.05,overcast clouds
172,Shingu,JP,2021-12-06 17:41:00,33.7333,135.9833,57.45,87,99,7.23,overcast clouds
173,Yaan,NG,2021-12-06 17:41:01,7.3833,8.5667,85.73,22,98,0.76,overcast clouds
174,Batemans Bay,AU,2021-12-06 17:41:01,-35.7167,150.1833,62.2,93,96,5.66,overcast clouds
175,Lanigan,CA,2021-12-06 17:41:01,51.8501,-105.0344,-7.31,86,57,5.97,broken clouds
176,Port Elizabeth,ZA,2021-12-06 17:41:02,-33.918,25.5701,64.69,94,90,11.5,light rain
177,Touros,BR,2021-12-06 17:41:02,-5.1989,-35.4608,88.7,65,21,17.69,few clouds
178,Padang,ID,2021-12-06 17:33:45,-0.9492,100.3543,77.05,83,90,3.76,overcast clouds
179,Port Macquarie,AU,2021-12-06 17:41:03,-31.4333,152.9167,64.89,92,99,6.73,overcast clouds
180,Grindavik,IS,2021-12-06 17:33:44,63.8424,-22.4338,36.07,87,90,17.27,moderate rain
181,Olafsvik,IS,2021-12-06 17:41:03,64.8945,-23.7142,36.46,94,100,13.11,overcast clouds
182,Kavieng,PG,2021-12-06 17:41:04,-2.5744,150.7967,80.89,86,100,17.43,light rain
183,Okha,RU,2021-12-06 17:41:04,53.5739,142.9478,19.6,87,100,18.97,light snow
184,Esperance,AU,2021-12-06 17:41:04,-33.8667,121.9,57.04,73,36,11.1,scattered clouds
185,Teguldet,RU,2021-12-06 17:41:05,57.3064,88.1667,26.92,89,100,7.83,overcast clouds
186,Aripuana,BR,2021-12-06 17:41:05,-9.1667,-60.6333,83.68,70,97,4.7,moderate rain
187,Parrita,CR,2021-12-06 17:41:06,9.5201,-84.3225,96.26,67,12,6.62,few clouds
188,Coquimbo,CL,2021-12-06 17:41:06,-29.9533,-71.3436,64.33,69,62,7.16,broken clouds
189,Rio Cuarto,AR,2021-12-06 17:41:06,-33.1307,-64.3499,78.67,57,40,16.11,scattered clouds
190,Muroto,JP,2021-12-06 17:34:47,33.2833,134.15,56.34,67,4,5.14,clear sky
191,Clyde River,CA,2021-12-06 17:41:07,70.4692,-68.5914,8.83,85,100,18.41,light snow
192,Mildura,AU,2021-12-06 17:41:07,-34.2,142.15,60.76,55,11,8.05,few clouds
193,Neiafu,TO,2021-12-06 17:41:08,-18.65,-173.9833,77.68,88,75,5.75,broken clouds
194,State College,US,2021-12-06 17:41:08,40.7934,-77.86,54.0,82,90,3.0,mist
195,Santa Rosa De Aguan,HN,2021-12-06 17:41:08,15.95,-85.7167,82.42,77,2,10.25,clear sky
196,Ponta Do Sol,PT,2021-12-06 17:41:09,32.6667,-17.1,66.13,61,8,9.22,clear sky
197,Manggar,ID,2021-12-06 17:41:09,-2.8833,108.2667,79.36,87,98,10.13,overcast clouds
198,Port Said,EG,2021-12-06 17:41:10,31.2565,32.2841,64.38,72,0,6.91,clear sky
199,Caceres,ES,2021-12-06 17:41:10,39.522,-6.3748,48.11,78,48,5.55,scattered clouds
200,Gidole,ET,2021-12-06 17:41:11,5.65,37.3667,66.63,32,60,3.24,broken clouds
201,Korla,CN,2021-12-06 17:41:11,41.7597,86.1469,32.59,41,100,3.96,overcast clouds
202,Bartica,GY,2021-12-06 17:41:12,6.4,-58.6167,75.52,95,95,3.29,light rain
203,Hofn,IS,2021-12-06 17:41:12,64.2539,-15.2082,37.42,87,90,11.5,overcast clouds
204,Zhanaozen,KZ,2021-12-06 17:41:12,43.3,52.8,41.11,55,6,3.69,clear sky
205,Czarnkow,PL,2021-12-06 17:41:12,52.9021,16.5641,31.73,97,97,4.34,overcast clouds
206,Longyearbyen,SJ,2021-12-06 17:34:57,78.2186,15.6401,33.64,75,75,12.66,broken clouds
207,Fuxin,CN,2021-12-06 17:41:13,42.0156,121.6589,21.25,86,5,1.83,clear sky
208,Gumdag,TM,2021-12-06 17:41:13,39.2061,54.5906,48.92,87,2,8.25,clear sky
209,Vila Franca Do Campo,PT,2021-12-06 17:41:13,37.7167,-25.4333,67.19,76,97,6.44,overcast clouds
210,Bonthe,SL,2021-12-06 17:41:14,7.5264,-12.505,82.26,75,82,8.61,broken clouds
211,Flinders,AU,2021-12-06 17:41:14,-34.5833,150.8552,66.38,82,90,6.38,overcast clouds
212,Sawang Daen Din,TH,2021-12-06 17:41:15,17.4753,103.4575,59.18,90,6,7.05,clear sky
213,Hasaki,JP,2021-12-06 17:41:15,35.7333,140.8333,45.0,73,81,14.03,moderate rain
214,Iskateley,RU,2021-12-06 17:34:23,67.6803,53.1512,20.89,94,100,10.4,overcast clouds
215,Mwanza,TZ,2021-12-06 17:41:16,-2.5167,32.9,77.05,69,20,9.22,few clouds
216,Oussouye,SN,2021-12-06 17:35:21,12.485,-16.5469,93.38,44,5,8.25,clear sky
217,Sanok,PL,2021-12-06 17:41:16,49.5557,22.2056,34.27,100,100,4.43,light snow
218,Narsaq,GL,2021-12-06 17:41:17,60.9167,-46.05,19.62,71,97,15.99,overcast clouds
219,Taltal,CL,2021-12-06 17:41:17,-25.4,-70.4833,67.55,67,87,7.45,overcast clouds
220,Mirnyy,RU,2021-12-06 17:41:17,62.5353,113.9611,-12.77,69,96,8.7,overcast clouds
221,Mackay,AU,2021-12-06 17:31:24,-21.15,149.2,78.78,73,40,12.66,scattered clouds
222,La Huacana,MX,2021-12-06 17:41:18,18.9667,-101.8167,85.33,41,76,4.12,broken clouds
223,Culebra,PR,2021-12-06 17:41:18,18.303,-65.301,86.67,73,10,18.07,clear sky
224,Phan Thiet,VN,2021-12-06 17:39:55,10.9333,108.1,71.71,89,70,5.3,broken clouds
225,Sorong,ID,2021-12-06 17:38:02,-0.8833,131.25,81.01,82,82,3.96,broken clouds
226,Constitucion,CL,2021-12-06 17:41:19,-35.3333,-72.4167,64.6,70,59,12.46,broken clouds
227,Faanui,PF,2021-12-06 17:41:19,-16.4833,-151.75,80.94,78,24,17.43,moderate rain
228,Old Saybrook,US,2021-12-06 17:41:19,41.2918,-72.3762,58.14,88,90,3.0,overcast clouds
229,Thaba-Tseka,LS,2021-12-06 17:41:20,-29.522,28.6084,52.43,59,3,5.41,clear sky
230,Mecca,SA,2021-12-06 17:41:20,21.4267,39.8261,77.67,65,0,4.68,clear sky
231,Mount Gambier,AU,2021-12-06 17:34:48,-37.8333,140.7667,53.51,87,90,12.66,overcast clouds
232,Tecpan,GT,2021-12-06 17:39:38,14.7623,-90.9947,73.45,46,1,4.76,clear sky
233,Arman,RU,2021-12-06 17:41:21,59.7,150.1667,0.79,73,100,8.93,overcast clouds
234,Lyambir,RU,2021-12-06 17:41:21,54.2817,45.1249,25.48,92,99,6.11,overcast clouds
235,Visby,SE,2021-12-06 17:41:21,57.6409,18.296,21.42,93,75,3.44,broken clouds
236,Sakakah,SA,2021-12-06 17:41:22,29.9697,40.2064,62.17,35,28,8.43,scattered clouds
237,Monterey,US,2021-12-06 17:41:22,36.2505,-121.2516,55.11,35,72,1.48,broken clouds
238,Jumla,NP,2021-12-06 17:41:22,29.2747,82.1838,40.41,84,94,3.04,overcast clouds
239,Dawlatabad,AF,2021-12-06 17:41:23,36.4141,64.9053,53.92,46,100,5.68,overcast clouds
240,Filadelfia,US,2021-12-06 17:39:03,39.9523,-75.1638,64.11,78,75,8.99,broken clouds
241,Jiwani,PK,2021-12-06 17:41:23,25.05,61.7417,75.56,54,0,7.56,clear sky
242,Pemangkat,ID,2021-12-06 17:34:13,1.1667,108.9667,78.91,83,100,4.74,light rain
243,Abu Samrah,SY,2021-12-06 17:41:23,35.3029,37.1841,55.06,47,33,8.23,scattered clouds
244,Whitehaven,GB,2021-12-06 17:41:24,54.549,-3.5841,40.66,87,59,23.15,broken clouds
245,Itarema,BR,2021-12-06 17:34:42,-2.9248,-39.9167,87.01,62,72,20.62,broken clouds
246,Kabanjahe,ID,2021-12-06 17:41:24,3.1001,98.4908,64.35,94,91,0.92,overcast clouds
247,Vestmanna,FO,2021-12-06 17:35:12,62.1564,-7.1664,41.92,81,90,23.02,overcast clouds
248,Grand Gaube,MU,2021-12-06 17:35:36,-20.0064,57.6608,79.38,69,0,5.99,clear sky
249,Ereymentau,KZ,2021-12-06 17:41:25,51.6199,73.1033,29.97,91,100,15.77,overcast clouds
250,Cabo San Lucas,MX,2021-12-06 17:39:26,22.8909,-109.9124,81.05,61,20,6.91,few clouds
251,Soke,ML,2021-12-06 17:41:25,13.598,-5.9386,84.92,11,19,9.1,few clouds
252,Berlevag,NO,2021-12-06 17:41:25,70.8578,29.0864,28.4,93,75,14.97,light shower snow
253,Mayma,RU,2021-12-06 17:41:26,52.0197,85.9114,23.27,86,99,4.7,overcast clouds
254,Okitipupa,NG,2021-12-06 17:41:26,6.5047,4.7839,80.58,81,100,5.28,overcast clouds
255,Tukrah,LY,2021-12-06 17:41:26,32.5341,20.5791,62.44,44,0,21.47,clear sky
256,Mnogovershinnyy,RU,2021-12-06 17:41:27,53.9353,139.9242,13.77,92,96,21.79,light snow
257,Kiruna,SE,2021-12-06 17:41:08,67.8557,20.2251,-28.28,99,28,2.24,scattered clouds
258,Ignacio De La Llave,MX,2021-12-06 17:41:27,18.7167,-95.9833,83.19,66,7,3.91,clear sky
259,Sussex,US,2021-12-06 17:41:28,41.1834,-74.6663,57.36,82,90,8.05,overcast clouds
260,Asau,RO,2021-12-06 17:41:28,46.4333,26.4,36.39,85,93,3.87,overcast clouds
261,Hami,CN,2021-12-06 17:41:28,42.8,93.45,29.73,56,91,8.68,overcast clouds
262,Satuba,BR,2021-12-06 17:41:29,-9.5633,-35.8244,88.61,55,75,14.97,broken clouds
263,Zarate,AR,2021-12-06 17:41:29,-34.0981,-59.0286,81.82,35,2,10.96,clear sky
264,Mandalgovi,MN,2021-12-06 17:33:52,45.7625,106.2708,21.47,36,86,7.87,overcast clouds
265,Rawson,AR,2021-12-06 17:41:29,-43.3002,-65.1023,77.49,40,5,12.39,clear sky
266,Springbok,ZA,2021-12-06 17:41:30,-29.6643,17.8865,64.47,60,9,9.46,clear sky
267,Kloulklubed,PW,2021-12-06 17:35:14,7.0419,134.2556,81.1,79,100,8.93,overcast clouds
268,Luderitz,NA,2021-12-06 17:41:30,-26.6481,15.1594,67.95,67,0,25.26,clear sky
269,Sambava,MG,2021-12-06 17:41:31,-14.2667,50.1667,76.44,84,12,9.33,moderate rain
270,Hualmay,PE,2021-12-06 17:35:10,-11.0964,-77.6139,71.53,73,100,10.2,overcast clouds
271,Zaraza,VE,2021-12-06 17:41:31,9.3503,-65.3245,95.9,31,47,7.14,scattered clouds
272,Tulum,MX,2021-12-06 17:41:31,20.2167,-87.4667,84.92,69,21,7.34,few clouds
273,Axim,GH,2021-12-06 17:33:32,4.8699,-2.2405,80.89,79,49,9.84,light rain
274,Igrim,RU,2021-12-06 17:41:32,63.1906,64.4162,-10.44,93,28,5.37,scattered clouds
275,Jiuquan,CN,2021-12-06 17:41:32,39.7432,98.5174,25.99,51,79,5.57,broken clouds
276,Minab,IR,2021-12-06 17:36:02,27.1467,57.0801,72.9,63,32,3.8,scattered clouds
277,Vila Velha,BR,2021-12-06 17:41:32,-20.3297,-40.2925,80.55,84,75,11.99,broken clouds
278,Adrar,MR,2021-12-06 17:41:33,20.5022,-10.0711,70.47,12,99,11.27,overcast clouds
279,Brugelette,BE,2021-12-06 17:41:33,50.5958,3.8536,40.96,96,100,20.42,moderate rain
280,Helena,US,2021-12-06 17:39:36,46.5927,-112.0361,30.25,71,90,3.44,overcast clouds
281,Alofi,NU,2021-12-06 17:41:33,-19.0595,-169.9187,75.09,88,75,9.22,light intensity shower rain
282,Inyonga,TZ,2021-12-06 17:41:34,-6.7167,32.0667,65.41,91,99,5.46,light rain
283,Sitka,US,2021-12-06 17:41:34,57.0531,-135.33,28.29,86,75,4.61,broken clouds
284,Bilibino,RU,2021-12-06 17:41:35,68.0546,166.4372,-22.41,98,100,3.04,overcast clouds
285,Saint-Augustin,CA,2021-12-06 17:41:35,51.226,-58.6502,22.3,47,100,8.01,overcast clouds
286,Kem,RU,2021-12-06 17:41:35,64.9555,34.5793,2.26,99,44,3.53,scattered clouds
287,Bumba,CD,2021-12-06 17:41:36,2.1833,22.4667,77.34,77,83,2.42,light rain
288,Petropavlovsk-Kamchatskiy,RU,2021-12-06 17:41:36,53.0452,158.6483,28.99,100,90,4.47,light shower snow
289,Forestville,US,2021-12-06 17:41:36,38.8451,-76.875,67.51,68,20,27.63,few clouds
290,De-Kastri,RU,2021-12-06 17:41:37,51.4667,140.7833,17.91,68,10,14.23,clear sky
291,Auki,SB,2021-12-06 17:41:37,-8.7676,160.7034,77.59,90,100,6.24,overcast clouds
292,Lingao,CN,2021-12-06 17:41:37,19.9103,109.6859,61.68,63,13,5.95,few clouds
293,Zemio,CF,2021-12-06 17:41:38,5.0314,25.1361,82.67,36,99,2.57,overcast clouds
294,Sacramento,US,2021-12-06 17:37:35,38.4666,-121.3177,49.91,94,90,1.99,mist
295,Sorland,NO,2021-12-06 17:41:38,67.667,12.6934,26.46,64,3,13.24,clear sky
296,Lagoa,PT,2021-12-06 17:41:39,39.05,-27.9833,62.92,78,99,20.47,overcast clouds
297,Urusha,RU,2021-12-06 17:41:39,54.05,122.9,-4.07,96,9,2.33,clear sky
298,Katsuura,JP,2021-12-06 17:41:40,35.1333,140.3,53.71,83,89,11.79,overcast clouds
299,Tura,IN,2021-12-06 17:41:40,25.5198,90.2201,63.23,91,20,2.33,few clouds
300,Husavik,IS,2021-12-06 17:41:41,66.0449,-17.3389,31.91,88,95,9.6,overcast clouds
301,Newark,US,2021-12-06 17:40:06,40.7357,-74.1724,63.28,85,75,13.8,broken clouds
302,Huarmey,PE,2021-12-06 17:34:49,-10.0681,-78.1522,71.49,75,100,9.91,overcast clouds
303,Lukaya,UG,2021-12-06 17:41:41,-0.1489,31.8748,75.25,81,44,2.68,scattered clouds
304,Kaitangata,NZ,2021-12-06 17:41:41,-46.2817,169.8464,53.92,77,38,8.43,scattered clouds
305,Pedra Azul,BR,2021-12-06 17:41:42,-16.0053,-41.2972,75.33,80,64,2.37,broken clouds
306,Marawi,PH,2021-12-06 17:41:42,7.9986,124.2928,66.65,94,100,1.81,overcast clouds
307,Sabha,LY,2021-12-06 17:41:43,27.0377,14.4283,55.26,24,0,10.96,clear sky
308,Kingaroy,AU,2021-12-06 17:41:43,-26.5333,151.8333,62.64,100,95,3.44,overcast clouds
309,Ketchikan,US,2021-12-06 17:41:44,55.3422,-131.6461,19.87,93,20,0.0,few clouds
310,Port Blair,IN,2021-12-06 17:35:28,11.6667,92.75,77.56,68,38,11.36,scattered clouds
311,Sovetskaya Gavan,RU,2021-12-06 17:41:44,48.9723,140.2878,20.21,68,4,11.95,clear sky
312,Ukmerge,LT,2021-12-06 17:41:45,55.25,24.75,20.08,96,89,6.02,overcast clouds
313,Leningradskiy,RU,2021-12-06 17:34:16,69.3833,178.4167,-5.84,94,100,27.04,overcast clouds
314,Egvekinot,RU,2021-12-06 17:41:45,66.3167,-179.1667,4.35,93,100,7.2,overcast clouds
315,Nikel,RU,2021-12-06 17:41:46,69.4128,30.222,5.18,76,97,18.34,overcast clouds
316,Siderno,IT,2021-12-06 17:41:46,38.2779,16.302,52.18,72,49,12.68,scattered clouds
317,Lazaro Cardenas,MX,2021-12-06 17:41:46,17.9583,-102.2,84.97,56,86,3.15,overcast clouds
318,Masyaf,SY,2021-12-06 17:41:47,35.0653,36.3406,53.65,53,47,6.78,scattered clouds
319,Kapit,MY,2021-12-06 17:41:47,2.0167,112.9333,72.66,98,99,0.43,overcast clouds
320,Bingol,TR,2021-12-06 17:41:48,38.8847,40.4939,39.04,63,11,4.36,few clouds
321,Natal,BR,2021-12-06 17:41:48,-5.795,-35.2094,88.45,66,40,19.57,scattered clouds
322,Bayji,IQ,2021-12-06 17:41:48,34.9311,43.487,58.73,38,0,6.98,clear sky
323,Ocos,GT,2021-12-06 17:41:48,14.5094,-92.1933,91.9,64,9,5.7,clear sky
324,Saint-Philippe,RE,2021-12-06 17:41:49,-21.3585,55.7679,78.39,81,32,11.12,light rain
325,Opotiki,NZ,2021-12-06 17:41:49,-38.0833,177.2833,67.39,95,100,4.97,light rain
326,Cervo,ES,2021-12-06 17:41:49,43.6702,-7.4101,52.97,85,96,5.64,overcast clouds
327,Seymchan,RU,2021-12-06 17:41:50,62.8833,152.4333,-47.7,99,59,1.34,broken clouds
328,Ritchie,ZA,2021-12-06 17:41:50,-29.038,24.6028,74.41,28,0,9.31,clear sky
329,Flensburg,DE,2021-12-06 17:41:50,54.7833,9.4333,34.92,86,100,12.66,overcast clouds
330,Harper,LR,2021-12-06 17:41:51,4.375,-7.7169,80.44,79,97,7.05,light rain
331,Dongfeng,CN,2021-12-06 17:41:51,42.6403,125.5118,17.33,96,6,2.86,clear sky
332,Emerald,AU,2021-12-06 17:41:52,-23.5333,148.1667,70.99,69,90,11.5,overcast clouds
333,Namibe,AO,2021-12-06 17:41:52,-15.1961,12.1522,73.33,61,13,6.31,few clouds
334,Port-Gentil,GA,2021-12-06 17:41:53,-0.7193,8.7815,77.2,89,100,14.85,light rain
335,Lorengau,PG,2021-12-06 17:34:47,-2.0226,147.2712,78.73,90,100,6.62,overcast clouds
336,Coihaique,CL,2021-12-06 17:41:34,-45.5752,-72.0662,81.14,28,11,7.9,few clouds
337,Komsomolskiy,UZ,2021-12-06 17:41:53,40.4272,71.7189,36.82,80,75,6.91,mist
338,Maniitsoq,GL,2021-12-06 17:41:53,65.4167,-52.9,23.09,74,100,16.49,light snow
339,Cap-Aux-Meules,CA,2021-12-06 17:35:58,47.3821,-61.8597,28.45,93,90,8.05,snow
340,Kutum,SD,2021-12-06 17:41:54,14.2,24.6667,71.35,18,5,7.7,clear sky
341,Sao Paulo De Olivenca,BR,2021-12-06 17:41:54,-3.3783,-68.8725,72.5,99,100,3.38,light rain
342,Torata,PE,2021-12-06 17:41:54,-17.0769,-70.8433,70.92,39,89,10.85,overcast clouds
343,Show Low,US,2021-12-06 17:34:19,34.2542,-110.0298,59.07,26,1,0.0,clear sky
344,Pangnirtung,CA,2021-12-06 17:41:55,66.1451,-65.7125,12.2,79,75,14.97,broken clouds
345,Ocean Springs,US,2021-12-06 17:39:31,30.4113,-88.8278,79.5,83,99,10.96,overcast clouds
346,Elliot Lake,CA,2021-12-06 17:41:55,46.3834,-82.6331,33.89,89,97,14.41,light rain
347,Mabaruma,GY,2021-12-06 17:41:55,8.2,-59.7833,79.92,89,70,5.5,broken clouds
348,Santa Isabel,BR,2021-12-06 17:41:56,-23.3156,-46.2214,80.4,67,58,10.69,broken clouds
349,Santa Marta,CO,2021-12-06 17:41:56,11.2408,-74.199,87.85,70,40,4.61,scattered clouds
350,Sulechow,PL,2021-12-06 17:41:56,52.0836,15.6251,32.77,100,90,2.3,light snow
351,Port Hedland,AU,2021-12-06 17:34:30,-20.3167,118.5667,87.85,40,79,8.05,broken clouds
352,Quelimane,MZ,2021-12-06 17:41:57,-17.8786,36.8883,84.15,70,40,18.41,scattered clouds
353,Barcelos,PT,2021-12-06 17:41:57,41.5388,-8.6151,55.54,96,100,4.97,overcast clouds
354,Umm Kaddadah,SD,2021-12-06 17:41:57,13.6017,26.6876,72.86,18,3,12.97,clear sky
355,Matara,LK,2021-12-06 17:38:54,5.9485,80.5353,76.68,89,65,4.36,broken clouds
356,Jati,PK,2021-12-06 17:41:58,24.3539,68.2671,71.04,19,7,8.88,clear sky
357,Jaen,ES,2021-12-06 17:41:58,38.0,-3.5,45.43,73,2,2.13,clear sky
358,Arkhangelsk,RU,2021-12-06 17:41:59,64.5401,40.5433,19.51,85,90,8.95,light shower snow
359,Namatanai,PG,2021-12-06 17:41:59,-3.6667,152.4333,78.73,87,98,5.91,light rain
360,Porto Belo,BR,2021-12-06 17:41:59,-27.1578,-48.5531,75.15,81,94,9.04,overcast clouds
361,Bengkulu,ID,2021-12-06 17:34:19,-3.8004,102.2655,75.58,89,99,4.52,overcast clouds
362,Norman Wells,CA,2021-12-06 17:41:59,65.282,-126.8329,-14.76,70,75,4.61,broken clouds
363,Abeokuta,NG,2021-12-06 17:42:00,7.15,3.35,87.35,51,66,5.57,broken clouds
364,Bilma,NE,2021-12-06 17:42:00,18.6853,12.9164,72.14,15,4,7.63,clear sky
365,Burns Lake,CA,2021-12-06 17:42:01,54.2331,-125.7533,6.22,78,93,1.43,overcast clouds
366,Oriximina,BR,2021-12-06 17:42:01,-1.7656,-55.8661,88.79,57,83,3.18,broken clouds
367,Kattivakkam,IN,2021-12-06 17:32:03,13.2167,80.3167,82.08,88,4,6.62,clear sky
368,Birao,CF,2021-12-06 17:42:01,10.2849,22.7882,80.17,19,78,6.4,broken clouds
369,Ferme-Neuve,CA,2021-12-06 17:42:02,46.7001,-75.4493,37.18,99,100,10.83,overcast clouds
370,Johnstown,US,2021-12-06 17:41:14,40.3267,-78.922,57.52,90,90,12.66,light rain
371,Nizhniy Kuranakh,RU,2021-12-06 17:42:02,58.8353,125.4869,-1.82,86,99,7.52,overcast clouds
372,Kalemie,CD,2021-12-06 17:42:03,-5.9475,29.1947,72.64,80,100,1.1,light rain
373,Belyy Yar,RU,2021-12-06 17:42:03,53.6039,91.3903,17.85,89,100,2.24,smoke
374,Ixtapa,MX,2021-12-06 17:42:04,20.7,-105.2,78.03,53,90,3.44,overcast clouds
375,Makakilo City,US,2021-12-06 17:38:29,21.3469,-158.0858,77.32,87,90,13.8,moderate rain
376,Raudeberg,NO,2021-12-06 17:42:04,61.9875,5.1352,34.86,66,100,1.99,overcast clouds
377,Kushmurun,KZ,2021-12-06 17:42:05,52.4503,64.6311,18.09,96,90,4.79,overcast clouds
378,Karasjok,NO,2021-12-06 17:42:05,69.4719,25.5112,-2.09,87,94,6.24,overcast clouds
379,Mogadishu,SO,2021-12-06 17:38:33,2.0371,45.3438,79.86,76,47,15.57,scattered clouds
380,Colares,PT,2021-12-06 17:41:02,38.7992,-9.4469,61.32,79,75,1.01,broken clouds
381,Tara,RU,2021-12-06 17:42:06,56.8944,74.371,19.49,96,100,6.04,light snow
382,Kolyvan,RU,2021-12-06 17:42:06,55.3053,82.7391,24.06,93,100,11.41,overcast clouds
383,Acapulco,MX,2021-12-06 17:37:33,16.8634,-99.8901,87.62,55,1,3.44,clear sky
384,Tiksi,RU,2021-12-06 17:42:06,71.6872,128.8694,-27.76,95,98,8.16,overcast clouds
385,Rheinbach,DE,2021-12-06 17:42:07,50.6256,6.9491,39.49,82,100,4.0,overcast clouds
386,Beringovskiy,RU,2021-12-06 17:42:07,63.05,179.3167,-9.4,87,26,11.14,scattered clouds
387,Makasar,ID,2021-12-06 17:42:08,-5.14,119.4221,75.25,100,40,4.61,very heavy rain
388,Hithadhoo,MV,2021-12-06 17:42:08,-0.6,73.0833,81.18,80,59,15.43,broken clouds
389,Taganak,PH,2021-12-06 17:42:08,6.0833,118.3,78.94,73,51,12.39,broken clouds
390,Nishihara,JP,2021-12-06 17:42:09,26.1842,127.7558,67.28,88,20,5.75,few clouds
391,Karratha,AU,2021-12-06 17:35:19,-20.7377,116.8463,87.19,42,47,12.48,scattered clouds
392,Prince Rupert,CA,2021-12-06 17:34:14,54.3161,-130.3201,33.49,78,1,5.75,clear sky
393,Novikovo,RU,2021-12-06 17:42:10,51.1537,37.8879,31.39,91,100,9.37,light snow
394,Nemuro,JP,2021-12-06 17:42:10,43.3236,145.575,42.31,82,26,12.03,scattered clouds
395,Aden,YE,2021-12-06 17:42:10,12.7794,45.0367,79.41,68,5,11.7,clear sky
396,Si Chiang Mai,TH,2021-12-06 17:42:11,17.9564,102.5867,59.9,62,11,3.53,few clouds
397,Aksu,CN,2021-12-06 17:34:34,41.1231,80.2644,30.45,45,97,2.59,overcast clouds
398,Hambantota,LK,2021-12-06 17:36:06,6.1241,81.1185,77.9,84,34,6.26,scattered clouds
399,Cam Ranh,VN,2021-12-06 17:42:11,11.9214,109.1591,75.16,64,20,13.8,few clouds
400,Conselheiro Pena,BR,2021-12-06 17:42:12,-19.1722,-41.4722,75.43,89,98,2.93,moderate rain
401,Marystown,CA,2021-12-06 17:42:12,47.1666,-55.1483,37.85,100,96,11.21,overcast clouds
402,Monrovia,LR,2021-12-06 17:37:37,6.3005,-10.7969,85.77,75,74,9.17,broken clouds
403,Bafq,IR,2021-12-06 17:42:13,31.6128,55.4107,55.08,30,4,12.66,clear sky
404,Vardo,NO,2021-12-06 17:42:13,70.3705,31.1107,17.35,79,75,24.16,broken clouds
405,Paamiut,GL,2021-12-06 17:42:13,61.994,-49.6678,24.13,66,100,23.87,light snow
406,San Ramon,US,2021-12-06 17:42:14,37.7799,-121.978,54.43,94,90,3.44,fog
407,Kavaratti,IN,2021-12-06 17:42:14,10.5669,72.642,80.55,68,18,12.21,few clouds
408,Quang Ngai,VN,2021-12-06 17:42:14,15.1167,108.8,66.29,80,100,7.23,overcast clouds
409,Kembe,CF,2021-12-06 17:42:15,4.6228,21.8865,80.31,55,100,0.4,overcast clouds
410,Areia Branca,BR,2021-12-06 17:42:15,-4.9561,-37.1369,84.4,65,33,17.52,scattered clouds
411,Ternate,ID,2021-12-06 17:42:15,0.8,127.4,81.34,82,100,8.84,overcast clouds
412,Ayan,RU,2021-12-06 17:42:16,56.45,138.1667,11.23,57,100,16.75,overcast clouds
413,Verkhnyaya Toyma,RU,2021-12-06 17:42:16,62.2349,44.9985,-4.25,100,30,2.06,scattered clouds
414,Angoche,MZ,2021-12-06 17:42:16,-16.2325,39.9086,81.55,78,76,14.32,broken clouds
415,Boyuibe,BO,2021-12-06 17:42:17,-20.4167,-63.2833,78.71,76,100,3.6,overcast clouds
416,Bakchar,RU,2021-12-06 17:35:50,57.0186,82.0711,24.98,96,100,6.82,light snow
417,La Asuncion,VE,2021-12-06 17:34:46,11.0333,-63.8628,81.91,72,54,16.64,broken clouds
418,Miles City,US,2021-12-06 17:33:50,46.4083,-105.8406,20.52,78,1,8.05,clear sky
419,Bima,ID,2021-12-06 17:42:17,-8.4667,118.7167,75.56,96,100,4.36,heavy intensity rain
420,Markivka,UA,2021-12-06 17:42:17,49.5229,39.5705,31.37,96,99,7.7,overcast clouds
421,Dingle,PH,2021-12-06 17:35:03,10.9995,122.6711,72.79,89,62,5.68,broken clouds
422,Aitape,PG,2021-12-06 17:42:18,-3.1374,142.3475,78.31,89,98,5.97,overcast clouds
423,Margate,GB,2021-12-06 17:33:42,51.3813,1.3862,43.03,88,100,3.0,overcast clouds
424,Kewanee,US,2021-12-06 17:42:18,41.2456,-89.9248,33.78,42,6,23.64,clear sky
425,Faranah,GN,2021-12-06 17:42:19,10.0404,-10.7434,81.27,29,7,2.28,clear sky
426,Sanming,CN,2021-12-06 17:42:19,26.2486,117.6186,50.2,81,3,2.08,clear sky
427,Talara,PE,2021-12-06 17:42:19,-4.5772,-81.2719,81.36,57,0,12.66,clear sky
428,Fairbanks,US,2021-12-06 17:30:02,64.8378,-147.7164,17.56,79,90,0.0,overcast clouds
429,Tres Arroyos,AR,2021-12-06 17:42:20,-38.3739,-60.2798,83.66,31,0,7.09,clear sky
430,Tari,NG,2021-12-06 17:42:20,12.4086,4.4914,83.28,18,42,9.95,scattered clouds
431,Banda Aceh,ID,2021-12-06 17:42:20,5.5577,95.3222,79.47,83,67,11.52,broken clouds
432,Storm Lake,US,2021-12-06 17:42:21,42.6411,-95.2097,17.82,49,1,18.41,clear sky
433,Batagay,RU,2021-12-06 17:34:29,67.6333,134.6333,-29.43,97,100,3.27,overcast clouds
434,Yumen,CN,2021-12-06 17:42:21,40.2833,97.2,24.51,49,97,5.86,overcast clouds
435,Buala,SB,2021-12-06 17:42:22,-8.145,159.5921,79.25,88,100,8.19,light rain
436,Kahului,US,2021-12-06 17:39:37,20.8947,-156.47,73.85,96,75,0.0,heavy intensity rain
437,Charters Towers,AU,2021-12-06 17:42:22,-20.1,146.2667,73.98,82,75,7.45,light rain
438,Sao Felix Do Xingu,BR,2021-12-06 17:42:00,-6.6447,-51.995,85.17,74,88,0.81,overcast clouds
439,Pacific Grove,US,2021-12-06 17:41:31,36.6177,-121.9166,62.96,90,20,5.01,few clouds
440,Kuybysheve,UA,2021-12-06 17:42:23,47.358,36.6491,39.99,96,100,12.59,overcast clouds
441,Kruisfontein,ZA,2021-12-06 17:34:32,-34.0033,24.7314,61.88,94,92,9.19,overcast clouds
442,Dembi Dolo,ET,2021-12-06 17:42:23,8.5333,34.8,68.23,50,34,3.96,scattered clouds
443,San Miguel,SV,2021-12-06 17:34:28,13.4833,-88.1833,96.28,45,0,2.3,clear sky
444,Najran,SA,2021-12-06 17:33:55,17.4924,44.1277,68.65,28,0,3.91,clear sky
445,Selkirk,CA,2021-12-06 17:42:24,50.1436,-96.8845,-2.58,100,18,10.0,few clouds
446,Tadine,NC,2021-12-06 17:42:24,-21.55,167.8833,76.73,83,33,4.21,scattered clouds
447,Borogontsy,RU,2021-12-06 17:42:25,62.6683,131.1683,-20.45,98,100,0.22,overcast clouds
448,Senanga,ZM,2021-12-06 17:42:25,-16.1167,23.2667,73.62,64,82,6.78,light rain
449,Wisconsin Rapids,US,2021-12-06 17:41:20,44.3836,-89.8174,22.39,71,90,25.32,light snow
450,Vilhena,BR,2021-12-06 17:35:19,-12.7406,-60.1458,84.42,65,40,9.22,scattered clouds
451,Qianan,CN,2021-12-06 17:42:26,44.9932,124.0581,15.75,82,5,9.01,clear sky
452,Poso,ID,2021-12-06 17:42:26,-1.3959,120.7524,77.76,81,100,2.28,overcast clouds
453,Kawalu,ID,2021-12-06 17:42:27,-7.3817,108.2082,71.92,95,100,2.15,overcast clouds
454,Altamont,US,2021-12-06 17:42:27,42.2068,-121.7372,39.78,65,75,1.01,broken clouds
455,Hirara,JP,2021-12-06 17:42:28,24.8,125.2833,72.84,62,41,22.41,scattered clouds
456,North Bend,US,2021-12-06 17:36:02,43.4065,-124.2243,46.31,97,90,8.05,overcast clouds
457,San Juan,AR,2021-12-06 17:42:28,-31.5375,-68.5364,89.26,28,2,4.5,clear sky
458,Zyryanka,RU,2021-12-06 17:42:28,65.75,150.85,-27.44,88,100,4.41,overcast clouds
459,Hobyo,SO,2021-12-06 17:42:29,5.3505,48.5268,79.05,73,3,15.82,clear sky
460,Strezhevoy,RU,2021-12-06 17:42:29,60.7333,77.5889,-18.42,95,100,3.06,overcast clouds
461,Pachino,IT,2021-12-06 17:42:30,36.7186,15.0907,48.24,66,75,20.94,broken clouds
462,Maldonado,UY,2021-12-06 17:42:30,-34.6667,-54.9167,74.59,58,73,12.37,broken clouds
463,Labuhan,ID,2021-12-06 17:35:26,-6.8844,112.2051,77.45,87,100,7.99,overcast clouds
464,Ust-Uda,RU,2021-12-06 17:42:30,54.1742,103.0304,8.17,96,84,2.01,broken clouds
465,Khandyga,RU,2021-12-06 17:42:31,62.6667,135.6,-18.24,99,100,2.15,overcast clouds
466,Daru,PG,2021-12-06 17:33:34,-9.0763,143.2092,79.39,83,95,6.22,overcast clouds
467,Silivri,TR,2021-12-06 17:42:31,41.0802,28.226,62.85,75,71,12.57,broken clouds
468,Stulovo,RU,2021-12-06 17:42:31,58.7225,50.1439,-5.44,100,17,2.71,few clouds
469,Chama,CH,2021-12-06 17:42:32,47.1821,8.4636,34.02,100,20,0.0,mist
470,Sadri,IN,2021-12-06 17:42:32,25.1833,73.4333,67.17,51,5,3.71,clear sky
471,Iberia,US,2021-12-06 17:41:53,29.9502,-91.7507,78.87,78,1,12.66,clear sky
472,Lodeynoye Pole,RU,2021-12-06 17:42:33,60.726,33.5531,7.48,92,100,8.23,overcast clouds
473,Buraydah,SA,2021-12-06 17:39:15,26.326,43.975,64.85,26,98,8.99,overcast clouds
474,Mirabad,AF,2021-12-06 17:42:33,30.4362,61.8383,57.09,24,6,5.64,clear sky
475,Puerto Del Rosario,ES,2021-12-06 17:42:33,28.5004,-13.8627,65.95,68,75,18.41,broken clouds
476,Gigmoto,PH,2021-12-06 17:34:12,13.7796,124.39,78.6,75,57,12.68,broken clouds
477,Altay,CN,2021-12-06 17:42:34,47.8667,88.1167,24.17,57,91,7.72,overcast clouds
478,Maymyo,MM,2021-12-06 17:42:34,22.0333,96.4667,58.48,92,7,1.92,clear sky
479,Jesus Del Monte,MX,2021-12-06 17:42:34,19.1081,-99.9944,63.81,35,94,4.32,overcast clouds
480,Ribas Do Rio Pardo,BR,2021-12-06 17:42:35,-20.4431,-53.7592,99.19,22,12,11.18,few clouds
481,San Isidro,PE,2021-12-06 17:42:35,-12.1167,-77.05,73.26,70,75,1.01,broken clouds
482,Saint Pete Beach,US,2021-12-06 17:42:36,27.7253,-82.7412,82.87,77,85,5.01,overcast clouds
483,Naranjal,EC,2021-12-06 17:42:36,-2.6667,-79.6167,88.54,63,100,4.94,light rain
484,Edenderry,IE,2021-12-06 17:42:36,53.3453,-7.0497,39.15,73,28,13.91,scattered clouds
485,Tommot,RU,2021-12-06 17:42:37,58.9564,126.2925,-5.4,94,92,3.44,overcast clouds
486,Maragogi,BR,2021-12-06 17:35:50,-9.0122,-35.2225,83.25,63,36,12.26,scattered clouds
487,Macenta,GN,2021-12-06 17:42:37,8.5435,-9.471,79.81,33,62,2.04,broken clouds
488,Kemijarvi,FI,2021-12-06 17:34:45,66.7131,27.4306,0.23,98,55,2.75,broken clouds
489,Matamoros,MX,2021-12-06 17:42:37,25.5333,-103.25,73.51,27,75,5.75,broken clouds
490,Cherskiy,RU,2021-12-06 17:42:38,68.75,161.3,-22.61,98,100,4.18,overcast clouds
491,Semey,KZ,2021-12-06 17:40:13,50.4111,80.2275,33.22,91,100,9.33,light snow
492,Saldanha,ZA,2021-12-06 17:42:38,-33.0117,17.9442,66.25,77,38,13.73,scattered clouds
493,Murray Bridge,AU,2021-12-06 17:42:38,-35.1167,139.2667,59.68,89,5,7.25,clear sky
494,Fort Frances,CA,2021-12-06 17:41:24,48.5999,-93.4003,-3.84,71,40,17.27,scattered clouds
495,Darnah,LY,2021-12-06 17:42:39,32.767,22.6367,61.9,48,1,21.63,clear sky
496,Vostok,RU,2021-12-06 17:42:39,46.4856,135.8833,10.98,98,91,3.94,overcast clouds
497,Ust-Ishim,RU,2021-12-06 17:42:39,57.6935,71.1665,8.6,96,99,3.38,overcast clouds
498,Sikasso,ML,2021-12-06 17:42:40,10.9167,-7.0,86.72,14,63,4.72,broken clouds
499,Bandar-E Lengeh,IR,2021-12-06 17:42:40,26.5579,54.8807,71.71,60,17,4.61,few clouds
500,Shakiso,ET,2021-12-06 17:35:07,5.75,38.9167,58.3,51,50,3.0,scattered clouds
501,Buin,CL,2021-12-06 17:42:41,-33.7333,-70.75,83.05,24,0,10.42,clear sky
502,Trinidad,BO,2021-12-06 17:33:49,-14.8333,-64.9,85.98,74,75,8.05,broken clouds
503,Aktash,RU,2021-12-06 17:42:41,50.3,87.7333,6.85,77,84,4.85,broken clouds
504,Birjand,IR,2021-12-06 17:33:37,32.8663,59.2211,46.87,34,0,9.22,clear sky
505,Sinegorskiy,RU,2021-12-06 17:42:41,48.0139,40.8447,36.73,92,89,5.75,overcast clouds
506,Sedalia,US,2021-12-06 17:42:42,38.7045,-93.2283,37.06,49,1,16.11,clear sky
507,Hay River,CA,2021-12-06 17:42:39,60.8156,-115.7999,-18.42,69,20,4.61,few clouds
508,Japura,ID,2021-12-06 17:42:42,-0.3167,102.35,74.05,98,99,2.21,overcast clouds
509,Avera,US,2021-12-06 17:34:09,33.194,-82.5271,72.91,55,89,14.63,overcast clouds
510,Alausi,EC,2021-12-06 17:42:43,-2.2,-78.8333,60.58,83,100,2.66,light rain
511,Luganville,VU,2021-12-06 17:42:43,-15.5333,167.1667,77.52,88,90,7.0,overcast clouds
512,Dajal,PK,2021-12-06 17:42:43,29.5577,70.3762,62.96,33,0,5.84,clear sky
513,Bage,BR,2021-12-06 17:42:44,-31.3314,-54.1069,80.38,47,0,16.11,clear sky
514,Juba,SS,2021-12-06 17:42:44,4.8517,31.5825,88.43,32,94,1.1,overcast clouds
515,Payo,ID,2021-12-06 17:42:44,-3.7508,103.6372,72.46,99,100,2.59,overcast clouds
516,Kununurra,AU,2021-12-06 17:42:45,-15.7667,128.7333,80.58,94,36,0.0,scattered clouds
517,Haines Junction,CA,2021-12-06 17:42:45,60.7522,-137.5108,8.51,97,100,2.13,overcast clouds
518,Stornoway,GB,2021-12-06 17:42:46,58.2093,-6.3865,40.96,84,40,8.01,scattered clouds
519,Port-Cartier,CA,2021-12-06 17:35:47,50.0334,-66.8654,17.82,94,100,19.44,snow
520,San Patricio,US,2021-12-06 17:42:46,28.017,-97.5169,84.29,67,100,8.46,overcast clouds
521,Okhotsk,RU,2021-12-06 17:33:44,59.3833,143.3,-2.74,80,100,16.2,overcast clouds
522,Tabuk,PH,2021-12-06 17:35:33,17.4189,121.4443,68.36,89,63,3.56,broken clouds
523,Jaguaribe,BR,2021-12-06 17:42:47,-5.8906,-38.6219,98.47,26,47,9.93,scattered clouds
524,La Candelaria,VE,2021-12-06 17:42:47,9.6855,-63.4038,90.84,41,50,12.28,scattered clouds
525,Ashwaubenon,US,2021-12-06 17:42:47,44.4822,-88.0701,30.58,64,20,26.46,haze
526,Beloha,MG,2021-12-06 17:42:47,-25.1667,45.05,79.93,61,1,5.48,clear sky
527,Karaton,ID,2021-12-06 17:42:48,-6.3424,106.1045,77.95,94,100,5.75,moderate rain
528,Danville,US,2021-12-06 17:39:51,36.586,-79.395,71.53,52,1,17.27,clear sky
529,Karymskoye,RU,2021-12-06 17:42:48,51.6167,114.35,16.38,80,12,3.78,few clouds
530,Diamantino,BR,2021-12-06 17:41:15,-14.4086,-56.4461,84.79,73,52,4.5,broken clouds
531,Chivay,PE,2021-12-06 17:42:49,-15.6383,-71.6011,55.98,60,100,6.13,overcast clouds
532,Alindao,CF,2021-12-06 17:42:49,5.0267,21.2088,84.29,49,100,3.6,overcast clouds
533,Lumeje,AO,2021-12-06 17:42:49,-11.55,20.7833,65.52,92,86,11.25,moderate rain
534,Airai,TL,2021-12-06 17:34:06,-8.9266,125.4092,61.77,91,96,1.41,overcast clouds
535,Seoul,KR,2021-12-06 17:35:43,37.5683,126.9778,38.64,80,98,4.61,overcast clouds
536,Krasnoselkup,RU,2021-12-06 17:42:50,65.7,82.4667,-22.65,93,46,10.2,scattered clouds
537,Moron,AR,2021-12-06 17:40:32,-34.6534,-58.6198,83.01,51,25,5.01,scattered clouds
538,Licheng,CN,2021-12-06 17:42:50,23.2955,113.8284,57.13,43,2,5.28,clear sky
539,Semnan,IR,2021-12-06 17:42:51,35.5729,53.3971,46.09,38,75,3.02,broken clouds
540,Puerto Escondido,MX,2021-12-06 17:34:30,15.85,-97.0667,86.83,62,1,4.61,clear sky
541,Lavrentiya,RU,2021-12-06 17:42:51,65.5833,-171.0,-1.71,92,59,10.85,broken clouds
542,Pangody,RU,2021-12-06 17:42:51,65.85,74.4859,-9.76,90,93,14.83,overcast clouds
543,La Ronge,CA,2021-12-06 17:33:36,55.1001,-105.2842,-14.55,64,75,1.14,broken clouds
544,Westport,US,2021-12-06 17:40:42,41.1415,-73.3579,57.09,92,90,1.01,overcast clouds
545,Iquique,CL,2021-12-06 17:42:52,-20.2208,-70.1431,69.8,67,100,7.67,overcast clouds
546,Palmer,US,2021-12-06 17:42:52,42.1584,-72.3287,57.88,80,100,1.99,overcast clouds
547,Appenzell,CH,2021-12-06 17:42:52,47.331,9.41,31.12,91,63,5.01,broken clouds
548,Sebinkarahisar,TR,2021-12-06 17:42:53,40.2883,38.4236,38.01,63,14,5.3,few clouds
549,Brae,GB,2021-12-06 17:42:53,60.3964,-1.353,44.51,71,100,19.04,overcast clouds
550,Taiyuan,CN,2021-12-06 17:42:53,37.8694,112.5603,24.66,54,0,2.24,clear sky
551,Loubomo,CG,2021-12-06 17:42:54,-4.1997,12.6739,74.16,94,94,2.84,overcast clouds
552,Belaya Gora,RU,2021-12-06 17:42:54,68.5333,146.4167,-23.42,97,100,1.07,overcast clouds
553,Nuuk,GL,2021-12-06 17:42:55,64.1835,-51.7216,23.61,74,40,10.36,scattered clouds
554,Usinsk,RU,2021-12-06 17:42:55,65.9939,57.5281,10.11,95,100,16.67,snow
555,Khasan,RU,2021-12-06 17:42:55,42.4308,130.6434,33.39,66,5,14.45,clear sky
556,Jablanica,BA,2021-12-06 17:42:56,43.6603,17.7617,42.93,96,100,7.54,overcast clouds
557,Tromso,NO,2021-12-06 17:42:56,69.6496,18.957,15.39,85,0,3.44,clear sky
558,Shache,CN,2021-12-06 17:42:56,38.4167,77.2406,31.59,33,45,3.36,scattered clouds
559,Samana,DO,2021-12-06 17:42:57,19.2056,-69.3369,84.42,79,40,9.22,scattered clouds
560,Novoagansk,RU,2021-12-06 17:35:35,61.9449,76.6625,-22.63,98,66,2.89,broken clouds
561,Myanaung,MM,2021-12-06 17:42:57,18.2833,95.3167,69.87,74,3,0.54,clear sky
562,Milkovo,RU,2021-12-06 17:42:58,54.7167,158.6167,14.97,90,86,1.16,overcast clouds
563,Outlook,CA,2021-12-06 17:42:58,51.5001,-107.0513,-0.71,85,99,6.02,overcast clouds
564,Khrebtovaya,RU,2021-12-06 17:42:58,56.7032,104.2494,28.04,93,100,10.96,light snow
565,Gorontalo,ID,2021-12-06 17:42:59,0.5412,123.0595,75.16,92,100,2.39,overcast clouds
566,Miyazu,JP,2021-12-06 17:42:59,35.5333,135.1833,48.15,78,100,3.2,overcast clouds
567,Biltine,TD,2021-12-06 17:35:41,14.5333,20.9167,81.99,18,5,6.71,clear sky
568,Weihai,CN,2021-12-06 17:43:00,37.5017,122.1136,45.01,59,47,15.99,scattered clouds
569,Helong,CN,2021-12-06 17:43:00,42.5397,128.9972,19.36,93,7,4.68,clear sky
570,Ushtobe,KZ,2021-12-06 17:43:00,45.2514,77.9838,41.85,84,100,5.44,overcast clouds
571,Gasa,PS,2021-12-06 17:39:05,31.5,34.4667,64.38,56,100,4.25,overcast clouds
572,Hovd,MN,2021-12-06 17:43:00,48.0056,91.6419,17.02,58,15,1.28,few clouds
573,Toktogul,KG,2021-12-06 17:43:01,41.8708,72.9402,37.8,52,68,2.82,broken clouds
574,Flin Flon,CA,2021-12-06 17:34:33,54.7682,-101.865,-14.96,70,1,6.91,clear sky
575,Benghazi,LY,2021-12-06 17:35:35,32.1167,20.0667,65.37,39,0,23.33,clear sky
576,Dali,CN,2021-12-06 17:43:01,25.7,100.1833,51.67,85,67,3.74,broken clouds
577,Itoman,JP,2021-12-06 17:43:02,26.1247,127.6694,66.22,80,20,6.91,few clouds
578,Lompoc,US,2021-12-06 17:34:39,34.6391,-120.4579,66.13,78,1,4.61,clear sky
579,General Pico,AR,2021-12-06 17:40:34,-35.6566,-63.7568,80.56,41,0,9.22,clear sky
580,Fukue,JP,2021-12-06 17:43:02,32.6881,128.8419,58.35,72,80,12.86,broken clouds
581,Broome,US,2021-12-06 17:43:03,42.2506,-75.833,54.7,77,90,1.99,overcast clouds
582,Zhigansk,RU,2021-12-06 17:36:11,66.7697,123.3711,-25.17,95,100,13.73,overcast clouds
583,Chulym,RU,2021-12-06 17:43:03,55.0997,80.9572,24.3,95,100,11.5,light snow
584,Laramie,US,2021-12-06 17:40:20,41.3114,-105.5911,37.56,23,40,5.01,scattered clouds
585,Progreso,MX,2021-12-06 17:43:04,21.2833,-89.6667,86.11,62,3,6.67,clear sky
586,Lonar,IN,2021-12-06 17:43:04,19.9833,76.5333,68.18,53,1,9.69,clear sky
587,Mykolayivka,UA,2021-12-06 17:43:04,47.5414,30.7561,51.28,96,100,13.58,overcast clouds
588,Altamira,BR,2021-12-06 17:35:24,-3.2033,-52.2064,89.69,66,75,6.91,broken clouds
589,Houma,US,2021-12-06 17:35:49,29.5958,-90.7195,79.0,76,40,13.8,scattered clouds
590,Salima,MW,2021-12-06 17:43:05,-13.7804,34.4587,80.1,56,28,4.29,scattered clouds
591,Alta Floresta,BR,2021-12-06 17:43:05,-9.8756,-56.0861,87.62,62,40,2.3,scattered clouds
592,Yenotayevka,RU,2021-12-06 17:43:06,47.2456,47.0281,41.22,86,100,7.94,overcast clouds
593,Moose Factory,CA,2021-12-06 17:43:06,51.2585,-80.6094,17.6,86,90,13.8,snow
594,Moura,PT,2021-12-06 17:43:06,38.1401,-7.4486,59.11,76,1,5.23,clear sky
595,Oksfjord,NO,2021-12-06 17:43:06,70.2396,22.3479,25.72,81,100,7.45,overcast clouds
596,Faya,SA,2021-12-06 17:43:07,18.3851,42.4509,61.32,30,1,6.22,clear sky
597,Chongqing,CN,2021-12-06 17:43:07,29.5628,106.5528,53.92,87,100,2.24,mist
598,Maryborough,AU,2021-12-06 17:43:07,-25.5333,152.7,68.45,85,99,4.29,overcast clouds
599,Buchanan,LR,2021-12-06 17:33:26,5.8808,-10.0467,85.96,77,78,8.21,light rain
600,Soyo,AO,2021-12-06 17:35:16,-6.1349,12.3689,78.85,86,93,8.86,overcast clouds
601,Aklavik,CA,2021-12-06 17:43:08,68.2191,-135.0107,12.92,78,40,2.3,scattered clouds
602,Cooma,AU,2021-12-06 17:43:08,-36.2333,149.1333,46.17,100,40,3.44,scattered clouds
603,Penzance,GB,2021-12-06 17:43:08,50.1186,-5.5371,48.76,76,20,24.16,few clouds
604,El Dorado,US,2021-12-06 17:43:09,38.7666,-120.5177,63.79,48,100,1.99,overcast clouds
605,Aykhal,RU,2021-12-06 17:43:09,66.0,111.5,-31.54,100,59,4.12,broken clouds
606,Merauke,ID,2021-12-06 17:43:09,-8.4667,140.3333,78.4,82,87,5.73,overcast clouds
607,Santa Rosa,PH,2021-12-06 17:35:05,14.3122,121.1114,77.11,80,59,5.32,broken clouds
608,Yelovo,RU,2021-12-06 17:43:10,57.0538,54.9207,0.0,95,34,4.74,scattered clouds
609,Otradnoye,RU,2021-12-06 17:30:52,59.7775,30.8181,6.57,96,100,5.1,light snow
610,Grand Island,US,2021-12-06 17:43:10,40.925,-98.342,20.98,53,1,6.91,clear sky
611,Edremit,TR,2021-12-06 17:43:11,39.5961,27.0244,60.55,77,75,3.44,light intensity shower rain
612,Honiara,SB,2021-12-06 17:34:42,-9.4333,159.95,78.96,89,100,4.34,overcast clouds
613,Cockburn Town,TC,2021-12-06 17:43:11,21.4612,-71.1419,80.58,79,94,20.0,overcast clouds
614,Matay,EG,2021-12-06 17:43:11,28.419,30.7792,62.87,54,96,4.41,overcast clouds
615,Montepuez,MZ,2021-12-06 17:43:12,-13.1256,38.9997,78.46,57,98,11.12,overcast clouds
616,Lady Frere,ZA,2021-12-06 17:43:12,-31.7031,27.2329,61.56,72,65,2.66,broken clouds
617,Kholodnyy,RU,2021-12-06 17:43:12,62.7167,147.95,-44.21,100,91,1.57,overcast clouds
618,Iqaluit,CA,2021-12-06 17:29:52,63.7506,-68.5145,11.93,66,75,3.0,broken clouds
619,Cardston,CA,2021-12-06 17:43:13,49.2,-113.3019,23.29,63,100,6.91,overcast clouds
620,Lindi,TZ,2021-12-06 17:43:13,-10.0,39.7167,75.83,94,65,4.0,light rain
621,Maceio,BR,2021-12-06 17:36:10,-9.6658,-35.7353,89.04,55,75,14.97,broken clouds
622,Ust-Kulom,RU,2021-12-06 17:34:59,61.6864,53.6902,-9.99,99,62,5.06,broken clouds
623,Pampa,US,2021-12-06 17:43:14,35.5362,-100.9599,34.34,30,3,7.92,clear sky
624,Rovaniemi,FI,2021-12-06 17:43:15,66.5,25.7167,-0.99,84,20,5.75,few clouds
625,Turukhansk,RU,2021-12-06 17:43:15,65.8167,87.9833,-30.44,99,59,3.83,broken clouds
626,Bol,TD,2021-12-06 17:43:15,13.4586,14.7147,78.6,48,30,6.8,scattered clouds
627,Grafton,US,2021-12-06 17:34:22,42.207,-71.6856,61.41,82,90,3.0,overcast clouds
628,Tautira,PF,2021-12-06 17:43:16,-17.7333,-149.15,82.42,79,50,15.84,scattered clouds
629,Mount Pleasant,US,2021-12-06 17:42:38,32.7941,-79.8626,71.06,77,1,1.01,clear sky
630,Shenjiamen,CN,2021-12-06 17:34:24,29.9576,122.298,54.81,66,0,10.02,clear sky
631,Wroclaw,PL,2021-12-06 17:39:07,51.1,17.0333,33.08,94,75,1.99,mist
632,Marseille,FR,2021-12-06 17:38:58,43.3333,5.5,45.91,64,1,3.0,clear sky
633,Nantucket,US,2021-12-06 17:43:16,41.2835,-70.0995,59.97,85,40,17.27,scattered clouds
634,Kansk,RU,2021-12-06 17:43:17,56.2017,95.7175,30.96,90,100,7.7,overcast clouds
635,Hyeres,FR,2021-12-06 17:43:17,43.1167,6.1167,49.73,47,0,6.91,clear sky
636,Tokur,RU,2021-12-06 17:33:43,53.1333,132.9,-8.14,100,99,4.18,overcast clouds
637,Olinda,BR,2021-12-06 17:35:56,-8.0089,-34.8553,85.73,62,20,11.5,few clouds
638,Ponta Delgada,PT,2021-12-06 17:43:18,37.7333,-25.6667,67.5,59,40,10.36,scattered clouds
639,Bushehr,IR,2021-12-06 17:43:18,28.9684,50.8385,69.89,64,0,0.0,clear sky
640,Norrkoping,SE,2021-12-06 17:43:19,58.5942,16.1826,5.58,85,6,0.0,clear sky
641,Urengoy,RU,2021-12-06 17:43:19,65.9667,78.3667,-14.66,86,84,12.71,broken clouds
642,Lianzhou,CN,2021-12-06 17:43:20,24.7811,112.3825,49.08,68,4,2.89,clear sky
643,Hailey,US,2021-12-06 17:43:20,43.5196,-114.3153,28.26,64,1,4.61,clear sky
644,Christchurch,NZ,2021-12-06 17:33:14,-43.5333,172.6333,51.01,93,90,3.44,heavy intensity drizzle
645,Liverpool,GB,2021-12-06 17:39:29,53.4106,-2.9779,44.38,81,75,5.01,moderate rain
646,Bathsheba,BB,2021-12-06 17:43:20,13.2167,-59.5167,84.81,65,40,24.16,scattered clouds
647,Le Port,RE,2021-12-06 17:34:49,-20.9373,55.2919,80.6,76,40,5.66,scattered clouds
648,Barra Do Garcas,BR,2021-12-06 17:34:17,-15.89,-52.2567,88.38,62,0,5.75,clear sky
649,Ryotsu,JP,2021-12-06 17:43:21,38.0833,138.4333,50.36,82,99,6.08,overcast clouds
650,Mataram,ID,2021-12-06 17:43:21,-8.5833,116.1167,74.21,90,100,2.42,moderate rain
651,Izumo,JP,2021-12-06 17:43:21,35.3667,132.7667,37.35,79,56,4.14,broken clouds
652,Mpika,ZM,2021-12-06 17:43:22,-11.8343,31.4529,70.59,57,76,4.38,broken clouds
653,Kainantu,PG,2021-12-06 17:43:22,-6.2887,145.8655,58.6,96,100,3.31,overcast clouds
654,Kailua,US,2021-12-06 17:42:01,21.4022,-157.7394,78.78,88,90,10.36,moderate rain
655,Kuala Terengganu,MY,2021-12-06 17:43:23,5.3302,103.1408,80.55,78,40,5.75,moderate rain
656,Kapoeta,SS,2021-12-06 17:43:23,4.7717,33.5903,87.39,30,60,14.85,broken clouds
657,General Roca,AR,2021-12-06 17:43:24,-39.0333,-67.5833,92.62,14,0,18.03,clear sky
658,Porto Santo,PT,2021-12-06 17:43:24,33.072,-16.3415,65.3,63,75,13.8,broken clouds
659,Canico,PT,2021-12-06 17:43:24,32.6333,-16.85,66.0,77,75,1.99,broken clouds
660,Zarinsk,RU,2021-12-06 17:43:25,53.7074,84.9493,29.01,96,100,8.88,light snow
661,Esmeraldas,BR,2021-12-06 17:43:25,-19.7625,-44.3139,70.84,78,90,3.02,overcast clouds
662,Mananjary,MG,2021-12-06 17:43:25,-21.2167,48.3333,76.78,83,1,6.96,clear sky
663,Uni,RU,2021-12-06 17:43:25,57.7535,51.4923,-5.03,92,5,4.27,clear sky
664,Yulara,AU,2021-12-06 17:43:26,-25.2406,130.9889,73.24,56,55,10.36,broken clouds
665,Sobolevo,RU,2021-12-06 17:34:55,54.4299,31.8996,27.36,97,99,8.7,light snow
666,Arvika,SE,2021-12-06 17:43:26,59.6553,12.5852,9.21,92,55,3.78,broken clouds
667,Pitimbu,BR,2021-12-06 17:33:32,-7.4706,-34.8086,88.39,63,18,14.36,few clouds
668,Noshiro,JP,2021-12-06 17:43:27,40.2039,140.0242,44.15,85,99,3.87,overcast clouds
669,Waipawa,NZ,2021-12-06 17:34:53,-41.4122,175.5153,53.46,98,100,2.19,light rain
670,Rock Sound,BS,2021-12-06 17:43:27,24.9,-76.2,78.76,81,31,13.78,scattered clouds
671,Uvira,CD,2021-12-06 17:43:27,-3.4067,29.1458,74.37,81,97,3.2,overcast clouds
672,Palu,ID,2021-12-06 17:43:28,-0.8917,119.8707,76.57,88,100,4.83,overcast clouds
673,Rio Grande,BR,2021-12-06 17:43:28,-32.035,-52.0986,80.71,67,11,15.17,few clouds
674,Pavino,RU,2021-12-06 17:43:29,59.1139,46.1414,-3.91,100,17,1.1,few clouds
675,Palpa,PE,2021-12-06 17:43:29,-14.5336,-75.1856,87.4,34,63,11.27,heavy intensity rain
676,Mantua,IT,2021-12-06 17:43:29,45.1667,10.7833,44.82,88,0,3.0,clear sky
677,Mpongwe,ZM,2021-12-06 17:43:30,-13.5091,28.155,81.21,30,79,6.4,broken clouds
678,Luebo,CD,2021-12-06 17:43:30,-5.35,21.4167,70.95,99,93,2.64,moderate rain
679,Aki,JP,2021-12-06 17:43:30,33.5,133.9,48.92,74,1,5.73,clear sky
680,Maunabo,PR,2021-12-06 17:43:31,18.0072,-65.8993,86.65,79,26,13.98,scattered clouds
681,Coahuayana,MX,2021-12-06 17:43:31,18.7333,-103.6833,93.47,31,14,2.57,few clouds
682,Mahajanga,MG,2021-12-06 17:34:10,-15.7167,46.3167,84.22,70,20,9.22,few clouds
683,Fairview,US,2021-12-06 17:43:31,40.8126,-73.999,61.38,85,40,3.44,scattered clouds
684,Gavle,SE,2021-12-06 17:43:32,60.6745,17.1417,9.95,93,95,4.79,overcast clouds
685,Cairns,AU,2021-12-06 17:35:42,-16.9167,145.7667,78.75,80,50,6.91,scattered clouds
686,Tongliao,CN,2021-12-06 17:43:32,43.6125,122.2653,15.76,79,3,6.91,clear sky
687,Contramaestre,CU,2021-12-06 17:43:33,20.2978,-76.2414,85.98,45,33,3.4,scattered clouds
688,Kisanga,TZ,2021-12-06 17:43:33,-7.4362,37.7034,77.16,82,96,4.05,light rain
689,Forssa,FI,2021-12-06 17:43:33,60.8146,23.6215,5.99,94,27,4.32,scattered clouds
690,Cozumel,MX,2021-12-06 17:43:34,20.5083,-86.9458,84.94,74,3,5.99,clear sky
691,Noumea,NC,2021-12-06 17:40:52,-22.2763,166.4572,80.01,99,29,3.42,scattered clouds
692,Mayya,RU,2021-12-06 17:43:34,61.7333,130.2811,-31.68,100,100,3.27,overcast clouds
693,Aranos,NA,2021-12-06 17:43:34,-24.1333,19.1167,81.43,13,0,10.63,clear sky
694,Vulcan,RO,2021-12-06 17:43:35,45.3833,23.2667,36.66,99,100,3.06,overcast clouds
695,Abu Dhabi,AE,2021-12-06 17:43:35,24.4667,54.3667,73.51,62,0,4.61,clear sky
696,Mukhen,RU,2021-12-06 17:43:36,48.1,136.1,14.77,87,12,7.43,few clouds
697,Rolla,US,2021-12-06 17:43:36,37.9514,-91.7713,37.47,45,1,8.99,clear sky
698,Beri,IN,2021-12-06 17:43:37,25.9031,79.8902,63.79,61,15,5.32,few clouds
699,Yatou,CN,2021-12-06 17:43:37,37.15,122.3833,42.96,66,47,13.69,scattered clouds
700,Jieshi,CN,2021-12-06 17:34:28,22.8134,115.8257,61.61,74,3,9.86,clear sky
701,Palana,RU,2021-12-06 17:43:37,59.1167,159.9667,22.03,96,100,7.99,snow
702,Maluso,PH,2021-12-06 17:43:38,6.543,121.8753,79.23,83,87,7.05,overcast clouds
703,Contamana,PE,2021-12-06 17:43:38,-7.3333,-75.0167,77.43,92,100,2.08,overcast clouds
